{
"type": "FeatureCollection",
"crs": { "type": "name", "properties": { "name": "urn:ogc:def:crs:OGC:1.3:CRS84" } },
                                                                                
"features": [
{ "type": "Feature", "properties": { "id": 1.0, "osm_id": 25960293.0, "name": "تهران", "type": "city", "z_order": 7.0, "population": 8000000.0 }, "geometry": { "type": "Point", "coordinates": [ 51.422351895412298, 35.686171990417506 ] } },
{ "type": "Feature", "properties": { "id": 2.0, "osm_id": 32827781.0, "name": "اسلامشهر", "type": "town", "z_order": 6.0, "population": null }, "geometry": { "type": "Point", "coordinates": [ 51.233210478445528, 35.549615448838153 ] } },
{ "type": "Feature", "properties": { "id": 3.0, "osm_id": 186874664.0, "name": "باغستان", "type": "suburb", "z_order": 3.0, "population": null }, "geometry": { "type": "Point", "coordinates": [ 50.965584272923223, 35.866572591116864 ] } },
{ "type": "Feature", "properties": { "id": 4.0, "osm_id": 187167044.0, "name": "گوهردشت‎", "type": "suburb", "z_order": 3.0, "population": null }, "geometry": { "type": "Point", "coordinates": [ 50.972283928129798, 35.85227583033091 ] } },
{ "type": "Feature", "properties": { "id": 5.0, "osm_id": 186880337.0, "name": "شهرک بهارستان", "type": "suburb", "z_order": 3.0, "population": null }, "geometry": { "type": "Point", "coordinates": [ 50.974123085324152, 35.88286692706717 ] } },
{ "type": "Feature", "properties": { "id": 6.0, "osm_id": 203367171.0, "name": "محمود آباد", "type": "town", "z_order": 6.0, "population": null }, "geometry": { "type": "Point", "coordinates": [ 51.001792585890229, 35.879145529696189 ] } },
{ "type": "Feature", "properties": { "id": 7.0, "osm_id": 234526006.0, "name": "کرج", "type": "city", "z_order": 7.0, "population": 1712000.0 }, "geometry": { "type": "Point", "coordinates": [ 51.003578937094566, 35.815037130006772 ] } },
{ "type": "Feature", "properties": { "id": 8.0, "osm_id": 251314952.0, "name": "Siahkolan", "type": "village", "z_order": 5.0, "population": null }, "geometry": { "type": "Point", "coordinates": [ 51.005636861961733, 35.888335364516593 ] } },
{ "type": "Feature", "properties": { "id": 9.0, "osm_id": 417953698.0, "name": "پرند", "type": "town", "z_order": 6.0, "population": null }, "geometry": { "type": "Point", "coordinates": [ 50.970834445614003, 35.471585881443985 ] } },
{ "type": "Feature", "properties": { "id": 10.0, "osm_id": 457004831.0, "name": "اوین", "type": "suburb", "z_order": 3.0, "population": null }, "geometry": { "type": "Point", "coordinates": [ 51.388189772647991, 35.790911665740509 ] } },
{ "type": "Feature", "properties": { "id": 11.0, "osm_id": 457014464.0, "name": "آریاشهر", "type": "suburb", "z_order": 3.0, "population": null }, "geometry": { "type": "Point", "coordinates": [ 51.332022471844226, 35.72194796481881 ] } },
{ "type": "Feature", "properties": { "id": 12.0, "osm_id": 457005173.0, "name": "سعادت آباد", "type": "suburb", "z_order": 3.0, "population": null }, "geometry": { "type": "Point", "coordinates": [ 51.374879897141682, 35.78282899651029 ] } },
{ "type": "Feature", "properties": { "id": 13.0, "osm_id": 457036664.0, "name": "يوسف آباد", "type": "suburb", "z_order": 3.0, "population": null }, "geometry": { "type": "Point", "coordinates": [ 51.405952618034291, 35.736500960384802 ] } },
{ "type": "Feature", "properties": { "id": 14.0, "osm_id": 457036666.0, "name": "امیر آباد", "type": "suburb", "z_order": 3.0, "population": null }, "geometry": { "type": "Point", "coordinates": [ 51.389001140875195, 35.727011221068828 ] } },
{ "type": "Feature", "properties": { "id": 15.0, "osm_id": 457015815.0, "name": "شهرآرا", "type": "suburb", "z_order": 3.0, "population": null }, "geometry": { "type": "Point", "coordinates": [ 51.371457985171105, 35.720612224729081 ] } },
{ "type": "Feature", "properties": { "id": 16.0, "osm_id": 457053274.0, "name": "زعفرانیه", "type": "suburb", "z_order": 3.0, "population": null }, "geometry": { "type": "Point", "coordinates": [ 51.414408198136698, 35.811762823351074 ] } },
{ "type": "Feature", "properties": { "id": 17.0, "osm_id": 457053276.0, "name": "جعفر آباد", "type": "suburb", "z_order": 3.0, "population": null }, "geometry": { "type": "Point", "coordinates": [ 51.429188259459636, 35.810308144055313 ] } },
{ "type": "Feature", "properties": { "id": 18.0, "osm_id": 480008624.0, "name": "ولنجک", "type": "suburb", "z_order": 3.0, "population": null }, "geometry": { "type": "Point", "coordinates": [ 51.402233064682008, 35.807933886162374 ] } },
{ "type": "Feature", "properties": { "id": 19.0, "osm_id": 480008627.0, "name": "زرگنده", "type": "suburb", "z_order": 3.0, "population": null }, "geometry": { "type": "Point", "coordinates": [ 51.432230722673573, 35.775956255003166 ] } },
{ "type": "Feature", "properties": { "id": 20.0, "osm_id": 480008625.0, "name": "محمودیه", "type": "suburb", "z_order": 3.0, "population": null }, "geometry": { "type": "Point", "coordinates": [ 51.41312333619922, 35.796970775906573 ] } },
{ "type": "Feature", "properties": { "id": 21.0, "osm_id": 480008628.0, "name": "دروس", "type": "suburb", "z_order": 3.0, "population": null }, "geometry": { "type": "Point", "coordinates": [ 51.442127654845699, 35.772700975267668 ] } },
{ "type": "Feature", "properties": { "id": 22.0, "osm_id": 480008630.0, "name": "امیرآباد شمالی", "type": "suburb", "z_order": 3.0, "population": null }, "geometry": { "type": "Point", "coordinates": [ 51.394083172588324, 35.737482984160607 ] } },
{ "type": "Feature", "properties": { "id": 23.0, "osm_id": 480008629.0, "name": "داوودیه", "type": "suburb", "z_order": 3.0, "population": null }, "geometry": { "type": "Point", "coordinates": [ 51.433988659226145, 35.768918557641598 ] } },
{ "type": "Feature", "properties": { "id": 24.0, "osm_id": 821096690.0, "name": "ری", "type": "town", "z_order": 6.0, "population": null }, "geometry": { "type": "Point", "coordinates": [ 51.441869659866001, 35.601639323446157 ] } },
{ "type": "Feature", "properties": { "id": 25.0, "osm_id": 821096714.0, "name": "نسیم شهر", "type": "town", "z_order": 6.0, "population": null }, "geometry": { "type": "Point", "coordinates": [ 51.160479028228309, 35.56282105346898 ] } },
{ "type": "Feature", "properties": { "id": 26.0, "osm_id": 821096740.0, "name": "فاز 3 اندیشه", "type": "town", "z_order": 6.0, "population": null }, "geometry": { "type": "Point", "coordinates": [ 51.023749316529369, 35.692105791131127 ] } },
{ "type": "Feature", "properties": { "id": 27.0, "osm_id": 821096700.0, "name": "لواسان", "type": "town", "z_order": 6.0, "population": null }, "geometry": { "type": "Point", "coordinates": [ 51.632144393960886, 35.820484445060202 ] } },
{ "type": "Feature", "properties": { "id": 28.0, "osm_id": 821096745.0, "name": "کهریزک", "type": "town", "z_order": 6.0, "population": null }, "geometry": { "type": "Point", "coordinates": [ 51.36196346817033, 35.516649591294794 ] } },
{ "type": "Feature", "properties": { "id": 29.0, "osm_id": 821096743.0, "name": "کمالشهر", "type": "town", "z_order": 6.0, "population": null }, "geometry": { "type": "Point", "coordinates": [ 50.871098431209468, 35.863158390497205 ] } },
{ "type": "Feature", "properties": { "id": 30.0, "osm_id": 821096755.0, "name": "رباط کریم", "type": "town", "z_order": 6.0, "population": null }, "geometry": { "type": "Point", "coordinates": [ 51.084177725449479, 35.485073620935651 ] } },
{ "type": "Feature", "properties": { "id": 31.0, "osm_id": 821096751.0, "name": "باقرشهر", "type": "town", "z_order": 6.0, "population": null }, "geometry": { "type": "Point", "coordinates": [ 51.404330971227296, 35.533045767368606 ] } },
{ "type": "Feature", "properties": { "id": 32.0, "osm_id": 1187456491.0, "name": "ميدان بهمن", "type": "locality", "z_order": 1.0, "population": null }, "geometry": { "type": "Point", "coordinates": [ 51.398039263248165, 35.649341321139872 ] } },
{ "type": "Feature", "properties": { "id": 33.0, "osm_id": 1499962746.0, "name": "بيد کنه", "type": "town", "z_order": 6.0, "population": null }, "geometry": { "type": "Point", "coordinates": [ 50.923633937187191, 35.627965288752563 ] } },
{ "type": "Feature", "properties": { "id": 34.0, "osm_id": 1521606661.0, "name": "طلوع آرین هوشمند", "type": "locality", "z_order": 1.0, "population": null }, "geometry": { "type": "Point", "coordinates": [ 51.42756275697721, 35.717619633839064 ] } },
{ "type": "Feature", "properties": { "id": 35.0, "osm_id": 1649102825.0, "name": "میدان آرژانتین", "type": "locality", "z_order": 1.0, "population": null }, "geometry": { "type": "Point", "coordinates": [ 51.415402962405324, 35.73706707412515 ] } },
{ "type": "Feature", "properties": { "id": 36.0, "osm_id": 1649104498.0, "name": "ميدان سيد جمال الدين اسدآبادي", "type": "locality", "z_order": 1.0, "population": null }, "geometry": { "type": "Point", "coordinates": [ 51.405646343292318, 35.737135218997935 ] } },
{ "type": "Feature", "properties": { "id": 37.0, "osm_id": 1655884650.0, "name": "فلکه اول صادقیه", "type": "locality", "z_order": 1.0, "population": null }, "geometry": { "type": "Point", "coordinates": [ 51.340923885376441, 35.721849142180417 ] } },
{ "type": "Feature", "properties": { "id": 38.0, "osm_id": 1655884652.0, "name": "میدان صادقیه", "type": "locality", "z_order": 1.0, "population": null }, "geometry": { "type": "Point", "coordinates": [ 51.33530977044984, 35.722148795218857 ] } },
{ "type": "Feature", "properties": { "id": 39.0, "osm_id": 1659641557.0, "name": "میدان ونک", "type": "locality", "z_order": 1.0, "population": null }, "geometry": { "type": "Point", "coordinates": [ 51.409967633473428, 35.757561749393744 ] } },
{ "type": "Feature", "properties": { "id": 40.0, "osm_id": 1680727529.0, "name": "میدان نوبنیاد", "type": "locality", "z_order": 1.0, "population": null }, "geometry": { "type": "Point", "coordinates": [ 51.477732889879377, 35.791510385084194 ] } },
{ "type": "Feature", "properties": { "id": 41.0, "osm_id": 1705076772.0, "name": "شهرک لادن", "type": "suburb", "z_order": 3.0, "population": null }, "geometry": { "type": "Point", "coordinates": [ 51.259558488157261, 35.756983733350893 ] } },
{ "type": "Feature", "properties": { "id": 42.0, "osm_id": 1705142632.0, "name": "شهرک صدرا", "type": "suburb", "z_order": 3.0, "population": null }, "geometry": { "type": "Point", "coordinates": [ 51.257219853352836, 35.743006658351952 ] } },
{ "type": "Feature", "properties": { "id": 43.0, "osm_id": 1705626228.0, "name": "شهران", "type": "suburb", "z_order": 3.0, "population": null }, "geometry": { "type": "Point", "coordinates": [ 51.290793985609497, 35.763160525437513 ] } },
{ "type": "Feature", "properties": { "id": 44.0, "osm_id": 1730750790.0, "name": "میدان هفت تیر", "type": "locality", "z_order": 1.0, "population": null }, "geometry": { "type": "Point", "coordinates": [ 51.426015457651374, 35.715797575727208 ] } },
{ "type": "Feature", "properties": { "id": 45.0, "osm_id": 1730748294.0, "name": "میدان ولیعصر", "type": "locality", "z_order": 1.0, "population": null }, "geometry": { "type": "Point", "coordinates": [ 51.407025753097599, 35.711624645232263 ] } },
{ "type": "Feature", "properties": { "id": 46.0, "osm_id": 2069351954.0, "name": "سلیمانیه", "type": "suburb", "z_order": 3.0, "population": null }, "geometry": { "type": "Point", "coordinates": [ 51.456832949592325, 35.681849526769952 ] } },
{ "type": "Feature", "properties": { "id": 47.0, "osm_id": 2276070773.0, "name": "درکه", "type": "suburb", "z_order": 3.0, "population": null }, "geometry": { "type": "Point", "coordinates": [ 51.382578759025591, 35.806095734796429 ] } },
{ "type": "Feature", "properties": { "id": 48.0, "osm_id": 2299605782.0, "name": "میدان پروین", "type": "locality", "z_order": 1.0, "population": null }, "geometry": { "type": "Point", "coordinates": [ 51.542484768275415, 35.742029244622898 ] } },
{ "type": "Feature", "properties": { "id": 49.0, "osm_id": 2299606758.0, "name": "فلکه اول تهرانپارس", "type": "locality", "z_order": 1.0, "population": null }, "geometry": { "type": "Point", "coordinates": [ 51.525268171518938, 35.726779042350955 ] } },
{ "type": "Feature", "properties": { "id": 50.0, "osm_id": 2299606759.0, "name": "فلکه سوم تهرانپارس", "type": "locality", "z_order": 1.0, "population": null }, "geometry": { "type": "Point", "coordinates": [ 51.533991134332574, 35.7431644895887 ] } },
{ "type": "Feature", "properties": { "id": 51.0, "osm_id": 2317956720.0, "name": "میدان محمدیه", "type": "locality", "z_order": 1.0, "population": null }, "geometry": { "type": "Point", "coordinates": [ 51.415763216603722, 35.667654019374311 ] } },
{ "type": "Feature", "properties": { "id": 52.0, "osm_id": 2317956721.0, "name": "میدان شوش", "type": "locality", "z_order": 1.0, "population": null }, "geometry": { "type": "Point", "coordinates": [ 51.430870088331403, 35.659755416737795 ] } },
{ "type": "Feature", "properties": { "id": 53.0, "osm_id": 2699559393.0, "name": "سرآسیاب", "type": "town", "z_order": 6.0, "population": null }, "geometry": { "type": "Point", "coordinates": [ 50.980968920922066, 35.692527987593991 ] } },
{ "type": "Feature", "properties": { "id": 54.0, "osm_id": 2702220723.0, "name": "مارلیک", "type": "town", "z_order": 6.0, "population": null }, "geometry": { "type": "Point", "coordinates": [ 50.968016868862229, 35.69879128092137 ] } },
{ "type": "Feature", "properties": { "id": 55.0, "osm_id": 2702220719.0, "name": "ملارد", "type": "town", "z_order": 6.0, "population": null }, "geometry": { "type": "Point", "coordinates": [ 50.976338589970965, 35.656633995995975 ] } },
{ "type": "Feature", "properties": { "id": 56.0, "osm_id": 2717318938.0, "name": "فردیس", "type": "town", "z_order": 6.0, "population": null }, "geometry": { "type": "Point", "coordinates": [ 50.986235438324051, 35.721720899061864 ] } },
{ "type": "Feature", "properties": { "id": 57.0, "osm_id": 2717327058.0, "name": "شهر قدس - قلعه حسن خان", "type": "town", "z_order": 6.0, "population": null }, "geometry": { "type": "Point", "coordinates": [ 51.105087724020308, 35.723379342423755 ] } },
{ "type": "Feature", "properties": { "id": 58.0, "osm_id": 2722897701.0, "name": "سه راه اندیشه", "type": "locality", "z_order": 1.0, "population": null }, "geometry": { "type": "Point", "coordinates": [ 50.989468841292279, 35.699382540371204 ] } },
{ "type": "Feature", "properties": { "id": 59.0, "osm_id": 2745257333.0, "name": "دارآباد", "type": "suburb", "z_order": 3.0, "population": null }, "geometry": { "type": "Point", "coordinates": [ 51.491917752257962, 35.818950892055597 ] } },
{ "type": "Feature", "properties": { "id": 60.0, "osm_id": 2756200963.0, "name": "شهرک واوان", "type": "town", "z_order": 6.0, "population": null }, "geometry": { "type": "Point", "coordinates": [ 51.217698676975509, 35.50833155822346 ] } },
{ "type": "Feature", "properties": { "id": 61.0, "osm_id": 2864399560.0, "name": "شهرک امام حسین", "type": "suburb", "z_order": 3.0, "population": null }, "geometry": { "type": "Point", "coordinates": [ 51.257473238285769, 35.527842952430746 ] } },
{ "type": "Feature", "properties": { "id": 62.0, "osm_id": 2880194237.0, "name": "شهرک ناز", "type": "town", "z_order": 6.0, "population": null }, "geometry": { "type": "Point", "coordinates": [ 50.953198418422744, 35.722394468800871 ] } },
{ "type": "Feature", "properties": { "id": 63.0, "osm_id": 2880341912.0, "name": "سه راه حافظیه", "type": "locality", "z_order": 1.0, "population": null }, "geometry": { "type": "Point", "coordinates": [ 50.99512352463023, 35.736424265970783 ] } },
{ "type": "Feature", "properties": { "id": 64.0, "osm_id": 2887014607.0, "name": "شهرک طالقانی", "type": "suburb", "z_order": 3.0, "population": null }, "geometry": { "type": "Point", "coordinates": [ 50.987348219789368, 35.742851760781321 ] } },
{ "type": "Feature", "properties": { "id": 65.0, "osm_id": 3056152800.0, "name": "شهرک کوثر", "type": "suburb", "z_order": 3.0, "population": null }, "geometry": { "type": "Point", "coordinates": [ 50.997756028959941, 35.704018487197459 ] } },
{ "type": "Feature", "properties": { "id": 66.0, "osm_id": 3134302368.0, "name": "چهار راه ملارد", "type": "locality", "z_order": 1.0, "population": null }, "geometry": { "type": "Point", "coordinates": [ 50.974978542362038, 35.656340377927819 ] } },
{ "type": "Feature", "properties": { "id": 67.0, "osm_id": 3137156599.0, "name": "شهرک وحدت - سیمین دشت", "type": "town", "z_order": 6.0, "population": null }, "geometry": { "type": "Point", "coordinates": [ 51.016045844598715, 35.75603699738744 ] } },
{ "type": "Feature", "properties": { "id": 68.0, "osm_id": 3137407359.0, "name": "فاز 1 اندیشه", "type": "town", "z_order": 6.0, "population": null }, "geometry": { "type": "Point", "coordinates": [ 51.018638367250297, 35.676834298825092 ] } },
{ "type": "Feature", "properties": { "id": 69.0, "osm_id": 3138048421.0, "name": "چهار راه میلاد", "type": "locality", "z_order": 1.0, "population": null }, "geometry": { "type": "Point", "coordinates": [ 51.030857421877613, 35.699481530647688 ] } },
{ "type": "Feature", "properties": { "id": 70.0, "osm_id": 3139739582.0, "name": "فاز 2 اندیشه", "type": "town", "z_order": 6.0, "population": null }, "geometry": { "type": "Point", "coordinates": [ 51.00176039938205, 35.702217048567405 ] } },
{ "type": "Feature", "properties": { "id": 71.0, "osm_id": 3152108838.0, "name": "پل فردیس", "type": "locality", "z_order": 1.0, "population": null }, "geometry": { "type": "Point", "coordinates": [ 51.003445078100889, 35.790643696296058 ] } },
{ "type": "Feature", "properties": { "id": 72.0, "osm_id": 3152656782.0, "name": "چهار راه ارغوان", "type": "locality", "z_order": 1.0, "population": null }, "geometry": { "type": "Point", "coordinates": [ 51.038236262698348, 35.70560903714366 ] } },
{ "type": "Feature", "properties": { "id": 73.0, "osm_id": 3152153395.0, "name": "چهار راه ساسان", "type": "locality", "z_order": 1.0, "population": null }, "geometry": { "type": "Point", "coordinates": [ 51.019312188446406, 35.704154274028866 ] } },
{ "type": "Feature", "properties": { "id": 74.0, "osm_id": 3171872646.0, "name": "شهرک مریم", "type": "suburb", "z_order": 3.0, "population": null }, "geometry": { "type": "Point", "coordinates": [ 51.0085180573586, 35.665044984373509 ] } },
{ "type": "Feature", "properties": { "id": 75.0, "osm_id": 3200739475.0, "name": "میدان جهاد", "type": "locality", "z_order": 1.0, "population": null }, "geometry": { "type": "Point", "coordinates": [ 51.40556705048828, 35.719890961960999 ] } },
{ "type": "Feature", "properties": { "id": 76.0, "osm_id": 3211940218.0, "name": "دیناراباد", "type": "village", "z_order": 5.0, "population": null }, "geometry": { "type": "Point", "coordinates": [ 51.080963768496616, 35.63864366575757 ] } },
{ "type": "Feature", "properties": { "id": 77.0, "osm_id": 3211940219.0, "name": "رزکان", "type": "town", "z_order": 6.0, "population": null }, "geometry": { "type": "Point", "coordinates": [ 51.099941654566948, 35.627384255224598 ] } },
{ "type": "Feature", "properties": { "id": 78.0, "osm_id": 3211940220.0, "name": "اسکمان", "type": "village", "z_order": 5.0, "population": null }, "geometry": { "type": "Point", "coordinates": [ 51.116672855310611, 35.612247795378686 ] } },
{ "type": "Feature", "properties": { "id": 79.0, "osm_id": 3216438352.0, "name": "صباشهر", "type": "town", "z_order": 6.0, "population": 12542.0 }, "geometry": { "type": "Point", "coordinates": [ 51.11321456588027, 35.582553981377174 ] } },
{ "type": "Feature", "properties": { "id": 80.0, "osm_id": 3217041433.0, "name": "فلکه اول گوهردشت", "type": "locality", "z_order": 1.0, "population": null }, "geometry": { "type": "Point", "coordinates": [ 50.971372563797757, 35.844297934890363 ] } },
{ "type": "Feature", "properties": { "id": 81.0, "osm_id": 3217089363.0, "name": "فلکه دوم گوهر دشت", "type": "locality", "z_order": 1.0, "population": null }, "geometry": { "type": "Point", "coordinates": [ 50.973086830634799, 35.847540138856907 ] } },
{ "type": "Feature", "properties": { "id": 82.0, "osm_id": 3217068858.0, "name": "سه راه گوهردشت", "type": "locality", "z_order": 1.0, "population": null }, "geometry": { "type": "Point", "coordinates": [ 50.967727777021793, 35.828862995472463 ] } },
{ "type": "Feature", "properties": { "id": 83.0, "osm_id": 3223840612.0, "name": "طرشت", "type": "suburb", "z_order": 3.0, "population": null }, "geometry": { "type": "Point", "coordinates": [ 51.343343740822633, 35.706516378162206 ] } },
{ "type": "Feature", "properties": { "id": 84.0, "osm_id": 3217054361.0, "name": "سر فاز", "type": "locality", "z_order": 1.0, "population": null }, "geometry": { "type": "Point", "coordinates": [ 51.019736480385063, 35.688653285213945 ] } },
{ "type": "Feature", "properties": { "id": 85.0, "osm_id": 3276345289.0, "name": "دکتر هوشیار", "type": "suburb", "z_order": 3.0, "population": null }, "geometry": { "type": "Point", "coordinates": [ 51.349230938154591, 35.697611192773564 ] } },
{ "type": "Feature", "properties": { "id": 86.0, "osm_id": 3276345290.0, "name": "همایون شهر", "type": "suburb", "z_order": 3.0, "population": null }, "geometry": { "type": "Point", "coordinates": [ 51.364566971115067, 35.709783727838271 ] } },
{ "type": "Feature", "properties": { "id": 87.0, "osm_id": 3276345292.0, "name": "تیموری", "type": "suburb", "z_order": 3.0, "population": null }, "geometry": { "type": "Point", "coordinates": [ 51.349448280903886, 35.702916099292082 ] } },
{ "type": "Feature", "properties": { "id": 88.0, "osm_id": 3276345288.0, "name": "چوب‌تراش", "type": "suburb", "z_order": 3.0, "population": null }, "geometry": { "type": "Point", "coordinates": [ 51.342237161965642, 35.714731230005469 ] } },
{ "type": "Feature", "properties": { "id": 89.0, "osm_id": 3276345291.0, "name": "استاد معین", "type": "suburb", "z_order": 3.0, "population": null }, "geometry": { "type": "Point", "coordinates": [ 51.344548639403818, 35.697447158928441 ] } },
{ "type": "Feature", "properties": { "id": 90.0, "osm_id": 3276345293.0, "name": "زنجان", "type": "suburb", "z_order": 3.0, "population": null }, "geometry": { "type": "Point", "coordinates": [ 51.357425841068306, 35.703289177802333 ] } },
{ "type": "Feature", "properties": { "id": 91.0, "osm_id": 3290994776.0, "name": "رودک", "type": "village", "z_order": 5.0, "population": null }, "geometry": { "type": "Point", "coordinates": [ 51.551890520921575, 35.848710084901853 ] } },
{ "type": "Feature", "properties": { "id": 92.0, "osm_id": 3290994777.0, "name": null, "type": "village", "z_order": 5.0, "population": null }, "geometry": { "type": "Point", "coordinates": [ 51.546633475070166, 35.870135151422716 ] } },
{ "type": "Feature", "properties": { "id": 93.0, "osm_id": 3290916467.0, "name": "قرچک", "type": "town", "z_order": 6.0, "population": null }, "geometry": { "type": "Point", "coordinates": [ 51.570316291029826, 35.441536423290813 ] } },
{ "type": "Feature", "properties": { "id": 94.0, "osm_id": 3287250713.0, "name": "هفت جوی", "type": "village", "z_order": 5.0, "population": null }, "geometry": { "type": "Point", "coordinates": [ 51.03044561897471, 35.732362144235793 ] } },
{ "type": "Feature", "properties": { "id": 95.0, "osm_id": 3296251061.0, "name": "قلعه نو", "type": "town", "z_order": 6.0, "population": null }, "geometry": { "type": "Point", "coordinates": [ 51.515609033939853, 35.511925718304241 ] } },
{ "type": "Feature", "properties": { "id": 96.0, "osm_id": 3298603974.0, "name": "شهرک یاس", "type": "suburb", "z_order": 3.0, "population": null }, "geometry": { "type": "Point", "coordinates": [ 50.929222738766185, 35.862075532426218 ] } },
{ "type": "Feature", "properties": { "id": 97.0, "osm_id": 3296285904.0, "name": null, "type": "town", "z_order": 6.0, "population": null }, "geometry": { "type": "Point", "coordinates": [ 51.470483549462671, 35.561203094699401 ] } },
{ "type": "Feature", "properties": { "id": 98.0, "osm_id": 3296285903.0, "name": "فیروزآباد", "type": "town", "z_order": 6.0, "population": null }, "geometry": { "type": "Point", "coordinates": [ 51.483926864867499, 35.544862825919722 ] } },
{ "type": "Feature", "properties": { "id": 99.0, "osm_id": 3296285905.0, "name": null, "type": "town", "z_order": 6.0, "population": null }, "geometry": { "type": "Point", "coordinates": [ 51.466041895151989, 35.571169680486889 ] } },
{ "type": "Feature", "properties": { "id": 100.0, "osm_id": 3298664891.0, "name": "شهرک ظفر", "type": "suburb", "z_order": 3.0, "population": null }, "geometry": { "type": "Point", "coordinates": [ 50.947595954341573, 35.861490894679861 ] } },
{ "type": "Feature", "properties": { "id": 101.0, "osm_id": 3298603975.0, "name": "شهرک شهید احسانی نژاد", "type": "suburb", "z_order": 3.0, "population": null }, "geometry": { "type": "Point", "coordinates": [ 50.923429251111685, 35.864284080093427 ] } },
{ "type": "Feature", "properties": { "id": 102.0, "osm_id": 3298664893.0, "name": "شاهین ویلا", "type": "suburb", "z_order": 3.0, "population": null }, "geometry": { "type": "Point", "coordinates": [ 50.953947341471292, 35.853091054233573 ] } },
{ "type": "Feature", "properties": { "id": 103.0, "osm_id": 3298664892.0, "name": "صوفی آباد", "type": "suburb", "z_order": 3.0, "population": null }, "geometry": { "type": "Point", "coordinates": [ 50.957745349437289, 35.8591257730614 ] } },
{ "type": "Feature", "properties": { "id": 104.0, "osm_id": 3298673898.0, "name": "باغستان غربی", "type": "suburb", "z_order": 3.0, "population": null }, "geometry": { "type": "Point", "coordinates": [ 50.960320353911214, 35.876949135788571 ] } },
{ "type": "Feature", "properties": { "id": 105.0, "osm_id": 3298671689.0, "name": "جهان شهر", "type": "suburb", "z_order": 3.0, "population": null }, "geometry": { "type": "Point", "coordinates": [ 50.983945250919952, 35.83416639324841 ] } },
{ "type": "Feature", "properties": { "id": 106.0, "osm_id": 3298727413.0, "name": "حصارک", "type": "suburb", "z_order": 3.0, "population": null }, "geometry": { "type": "Point", "coordinates": [ 50.917340636646458, 35.844401199937465 ] } },
{ "type": "Feature", "properties": { "id": 107.0, "osm_id": 3298730461.0, "name": "بنیاد", "type": "suburb", "z_order": 3.0, "population": null }, "geometry": { "type": "Point", "coordinates": [ 50.936952948967978, 35.858462764520368 ] } },
{ "type": "Feature", "properties": { "id": 108.0, "osm_id": 3305195685.0, "name": "قصطانک", "type": "suburb", "z_order": 3.0, "population": null }, "geometry": { "type": "Point", "coordinates": [ 51.029392684298045, 35.605241949249177 ] } },
{ "type": "Feature", "properties": { "id": 109.0, "osm_id": 3305195688.0, "name": "بکه", "type": "town", "z_order": 6.0, "population": null }, "geometry": { "type": "Point", "coordinates": [ 50.992936099359042, 35.597896719860159 ] } },
{ "type": "Feature", "properties": { "id": 110.0, "osm_id": 3305196164.0, "name": "قجر تخت رستم", "type": "town", "z_order": 6.0, "population": null }, "geometry": { "type": "Point", "coordinates": [ 50.950766325397922, 35.576834673565742 ] } },
{ "type": "Feature", "properties": { "id": 111.0, "osm_id": 3305195686.0, "name": "قصبه", "type": "suburb", "z_order": 3.0, "population": null }, "geometry": { "type": "Point", "coordinates": [ 51.026431441725855, 35.603567077357042 ] } },
{ "type": "Feature", "properties": { "id": 112.0, "osm_id": 3305195687.0, "name": "فرارت", "type": "town", "z_order": 6.0, "population": null }, "geometry": { "type": "Point", "coordinates": [ 51.025852168397563, 35.57610167613322 ] } },
{ "type": "Feature", "properties": { "id": 113.0, "osm_id": 3305196165.0, "name": "ترپاق تپه", "type": "town", "z_order": 6.0, "population": null }, "geometry": { "type": "Point", "coordinates": [ 50.97984683554423, 35.586927993729233 ] } },
{ "type": "Feature", "properties": { "id": 114.0, "osm_id": 3305196361.0, "name": "ملارد ویلای جنوبی", "type": "town", "z_order": 6.0, "population": null }, "geometry": { "type": "Point", "coordinates": [ 50.986015916279939, 35.655771665797488 ] } },
{ "type": "Feature", "properties": { "id": 115.0, "osm_id": 3305196360.0, "name": "شهرک جعفریه", "type": "town", "z_order": 6.0, "population": null }, "geometry": { "type": "Point", "coordinates": [ 50.995521665030964, 35.657340841890601 ] } },
{ "type": "Feature", "properties": { "id": 116.0, "osm_id": 3305197360.0, "name": "جوقین", "type": "town", "z_order": 6.0, "population": null }, "geometry": { "type": "Point", "coordinates": [ 51.014337361274869, 35.597640485080149 ] } },
{ "type": "Feature", "properties": { "id": 117.0, "osm_id": 3305196298.0, "name": "لمآباد", "type": "town", "z_order": 6.0, "population": null }, "geometry": { "type": "Point", "coordinates": [ 50.9565277941823, 35.641519329098344 ] } },
{ "type": "Feature", "properties": { "id": 118.0, "osm_id": 3305196410.0, "name": "کردزار", "type": "town", "z_order": 6.0, "population": null }, "geometry": { "type": "Point", "coordinates": [ 51.013833189798987, 35.639523765590781 ] } },
{ "type": "Feature", "properties": { "id": 119.0, "osm_id": 3305202082.0, "name": "پیغمبر", "type": "village", "z_order": 5.0, "population": null }, "geometry": { "type": "Point", "coordinates": [ 51.044367373412683, 35.540738342825136 ] } },
{ "type": "Feature", "properties": { "id": 120.0, "osm_id": 3305202081.0, "name": "منجیل آباد", "type": "town", "z_order": 6.0, "population": null }, "geometry": { "type": "Point", "coordinates": [ 51.059344828555368, 35.543706542376952 ] } },
{ "type": "Feature", "properties": { "id": 121.0, "osm_id": 3305197410.0, "name": "ابراهیم آباد", "type": "town", "z_order": 6.0, "population": null }, "geometry": { "type": "Point", "coordinates": [ 51.032340348187063, 35.645077866090645 ] } },
{ "type": "Feature", "properties": { "id": 122.0, "osm_id": 3305200263.0, "name": "اصیل آباد", "type": "town", "z_order": 6.0, "population": null }, "geometry": { "type": "Point", "coordinates": [ 51.02000227053469, 35.570871117095862 ] } },
{ "type": "Feature", "properties": { "id": 123.0, "osm_id": 3305200262.0, "name": "سقرچین", "type": "town", "z_order": 6.0, "population": null }, "geometry": { "type": "Point", "coordinates": [ 51.009316265997796, 35.569597067813476 ] } },
{ "type": "Feature", "properties": { "id": 124.0, "osm_id": 3305202080.0, "name": "ینگجه", "type": "village", "z_order": 5.0, "population": null }, "geometry": { "type": "Point", "coordinates": [ 51.03812327464356, 35.555167956776415 ] } },
{ "type": "Feature", "properties": { "id": 125.0, "osm_id": 3305206387.0, "name": "حصار مهتر", "type": "town", "z_order": 6.0, "population": null }, "geometry": { "type": "Point", "coordinates": [ 51.040311873381192, 35.523911588385289 ] } },
{ "type": "Feature", "properties": { "id": 126.0, "osm_id": 3305229743.0, "name": "الارد", "type": "town", "z_order": 6.0, "population": null }, "geometry": { "type": "Point", "coordinates": [ 51.072788060141185, 35.524506452053515 ] } },
{ "type": "Feature", "properties": { "id": 127.0, "osm_id": 3305229755.0, "name": "صغرآباد", "type": "village", "z_order": 5.0, "population": null }, "geometry": { "type": "Point", "coordinates": [ 51.083275581210927, 35.502296168843365 ] } },
{ "type": "Feature", "properties": { "id": 128.0, "osm_id": 3305206388.0, "name": "پرندک", "type": "town", "z_order": 6.0, "population": null }, "geometry": { "type": "Point", "coordinates": [ 51.056405127474363, 35.512873627734137 ] } },
{ "type": "Feature", "properties": { "id": 129.0, "osm_id": 3305243513.0, "name": "سعیدآباد", "type": "town", "z_order": 6.0, "population": null }, "geometry": { "type": "Point", "coordinates": [ 51.186798036555075, 35.667469785142572 ] } },
{ "type": "Feature", "properties": { "id": 130.0, "osm_id": 3305243512.0, "name": "بادامک", "type": "suburb", "z_order": 3.0, "population": null }, "geometry": { "type": "Point", "coordinates": [ 51.165104330037501, 35.641408268881293 ] } },
{ "type": "Feature", "properties": { "id": 131.0, "osm_id": 3311323111.0, "name": "زیباشهر", "type": "suburb", "z_order": 3.0, "population": null }, "geometry": { "type": "Point", "coordinates": [ 51.58438187892628, 35.423239734491396 ] } },
{ "type": "Feature", "properties": { "id": 132.0, "osm_id": 3311323112.0, "name": "شهرک الحدید", "type": "suburb", "z_order": 3.0, "population": null }, "geometry": { "type": "Point", "coordinates": [ 51.589982247531651, 35.421071419959446 ] } },
{ "type": "Feature", "properties": { "id": 133.0, "osm_id": 3311587252.0, "name": "باقرآباد", "type": "town", "z_order": 6.0, "population": null }, "geometry": { "type": "Point", "coordinates": [ 51.588869130790215, 35.404961821155126 ] } },
{ "type": "Feature", "properties": { "id": 134.0, "osm_id": 3311587254.0, "name": "خیرآباد", "type": "town", "z_order": 6.0, "population": null }, "geometry": { "type": "Point", "coordinates": [ 51.608996427242715, 35.384268830057437 ] } },
{ "type": "Feature", "properties": { "id": 135.0, "osm_id": 3311628571.0, "name": "خورین", "type": "town", "z_order": 6.0, "population": null }, "geometry": { "type": "Point", "coordinates": [ 51.639289379683071, 35.403021578208495 ] } },
{ "type": "Feature", "properties": { "id": 136.0, "osm_id": 3311587253.0, "name": "آزادیه", "type": "suburb", "z_order": 3.0, "population": null }, "geometry": { "type": "Point", "coordinates": [ 51.596615350427044, 35.404367125124963 ] } },
{ "type": "Feature", "properties": { "id": 137.0, "osm_id": 3311628572.0, "name": "پویینک", "type": "town", "z_order": 6.0, "population": null }, "geometry": { "type": "Point", "coordinates": [ 51.610192692463642, 35.403056530744742 ] } },
{ "type": "Feature", "properties": { "id": 138.0, "osm_id": 3311747390.0, "name": "اسلام آباد", "type": "town", "z_order": 6.0, "population": null }, "geometry": { "type": "Point", "coordinates": [ 51.518884933157153, 35.56084476833874 ] } },
{ "type": "Feature", "properties": { "id": 139.0, "osm_id": 3311738669.0, "name": "مسگرآباد", "type": "suburb", "z_order": 3.0, "population": null }, "geometry": { "type": "Point", "coordinates": [ 51.546758449246482, 35.666156089458184 ] } },
{ "type": "Feature", "properties": { "id": 140.0, "osm_id": 3311746263.0, "name": "زمان آباد", "type": "town", "z_order": 6.0, "population": null }, "geometry": { "type": "Point", "coordinates": [ 51.516116893453123, 35.547271784891791 ] } },
{ "type": "Feature", "properties": { "id": 141.0, "osm_id": 3311739287.0, "name": "عشق آباد", "type": "town", "z_order": 6.0, "population": null }, "geometry": { "type": "Point", "coordinates": [ 51.501332557359547, 35.455220131678658 ] } },
{ "type": "Feature", "properties": { "id": 142.0, "osm_id": 3311739288.0, "name": "طالب آباد", "type": "town", "z_order": 6.0, "population": null }, "geometry": { "type": "Point", "coordinates": [ 51.530579364464835, 35.500634624177273 ] } },
{ "type": "Feature", "properties": { "id": 143.0, "osm_id": 3311795884.0, "name": "مسگرآباد", "type": "town", "z_order": 6.0, "population": null }, "geometry": { "type": "Point", "coordinates": [ 51.51126217895407, 35.626824427911629 ] } },
{ "type": "Feature", "properties": { "id": 144.0, "osm_id": 3311751987.0, "name": "مسعودیه", "type": "suburb", "z_order": 3.0, "population": null }, "geometry": { "type": "Point", "coordinates": [ 51.504358089129056, 35.632529737944736 ] } },
{ "type": "Feature", "properties": { "id": 145.0, "osm_id": 3311826678.0, "name": "فرح آباد", "type": "suburb", "z_order": 3.0, "population": null }, "geometry": { "type": "Point", "coordinates": [ 51.480513250981062, 35.680774296230851 ] } },
{ "type": "Feature", "properties": { "id": 146.0, "osm_id": 3311826003.0, "name": "افسریه", "type": "suburb", "z_order": 3.0, "population": null }, "geometry": { "type": "Point", "coordinates": [ 51.494031584419304, 35.656874640436079 ] } },
{ "type": "Feature", "properties": { "id": 147.0, "osm_id": 3311826004.0, "name": "شهرک والفجر", "type": "suburb", "z_order": 3.0, "population": null }, "geometry": { "type": "Point", "coordinates": [ 51.517720854444406, 35.677785058102074 ] } },
{ "type": "Feature", "properties": { "id": 148.0, "osm_id": 3311827908.0, "name": "چهارصد دستگاه", "type": "suburb", "z_order": 3.0, "population": null }, "geometry": { "type": "Point", "coordinates": [ 51.459055578856855, 35.688861240231688 ] } },
{ "type": "Feature", "properties": { "id": 149.0, "osm_id": 3311834542.0, "name": "بهارستان", "type": "suburb", "z_order": 3.0, "population": null }, "geometry": { "type": "Point", "coordinates": [ 51.430087721489201, 35.691954581597884 ] } },
{ "type": "Feature", "properties": { "id": 150.0, "osm_id": 3311826767.0, "name": "نیرو هوایی", "type": "suburb", "z_order": 3.0, "population": null }, "geometry": { "type": "Point", "coordinates": [ 51.496327555336592, 35.689157456689856 ] } },
{ "type": "Feature", "properties": { "id": 151.0, "osm_id": 3311919973.0, "name": "ونک", "type": "suburb", "z_order": 3.0, "population": null }, "geometry": { "type": "Point", "coordinates": [ 51.399090856820322, 35.758471688802246 ] } },
{ "type": "Feature", "properties": { "id": 152.0, "osm_id": 3311917376.0, "name": "شهرک اکباتان", "type": "suburb", "z_order": 3.0, "population": null }, "geometry": { "type": "Point", "coordinates": [ 51.306181818731567, 35.703699471962665 ] } },
{ "type": "Feature", "properties": { "id": 153.0, "osm_id": 3311921727.0, "name": "امانیه", "type": "suburb", "z_order": 3.0, "population": null }, "geometry": { "type": "Point", "coordinates": [ 51.419994652782805, 35.782332955480484 ] } },
{ "type": "Feature", "properties": { "id": 154.0, "osm_id": 3311928758.0, "name": "پاسداران", "type": "suburb", "z_order": 3.0, "population": null }, "geometry": { "type": "Point", "coordinates": [ 51.48239356331996, 35.773602616592058 ] } },
{ "type": "Feature", "properties": { "id": 155.0, "osm_id": 3311922312.0, "name": "اخنیاریه", "type": "suburb", "z_order": 3.0, "population": null }, "geometry": { "type": "Point", "coordinates": [ 51.461794198080753, 35.789974485146665 ] } },
{ "type": "Feature", "properties": { "id": 156.0, "osm_id": 3311917377.0, "name": "شهرک آپادانا", "type": "suburb", "z_order": 3.0, "population": null }, "geometry": { "type": "Point", "coordinates": [ 51.325437397254007, 35.711392466514347 ] } },
{ "type": "Feature", "properties": { "id": 157.0, "osm_id": 3311930799.0, "name": "نیاوران", "type": "suburb", "z_order": 3.0, "population": null }, "geometry": { "type": "Point", "coordinates": [ 51.471557438897264, 35.816452833452786 ] } },
{ "type": "Feature", "properties": { "id": 158.0, "osm_id": 3311925860.0, "name": "ازگل", "type": "suburb", "z_order": 3.0, "population": null }, "geometry": { "type": "Point", "coordinates": [ 51.499087632232602, 35.793003034401352 ] } },
{ "type": "Feature", "properties": { "id": 159.0, "osm_id": 3311930800.0, "name": "جماران", "type": "suburb", "z_order": 3.0, "population": null }, "geometry": { "type": "Point", "coordinates": [ 51.457674241213851, 35.815739449673686 ] } },
{ "type": "Feature", "properties": { "id": 160.0, "osm_id": 3311930801.0, "name": "دربند", "type": "suburb", "z_order": 3.0, "population": null }, "geometry": { "type": "Point", "coordinates": [ 51.427483380354147, 35.823055845315793 ] } },
{ "type": "Feature", "properties": { "id": 161.0, "osm_id": 3320472986.0, "name": "چنارک", "type": "suburb", "z_order": 3.0, "population": null }, "geometry": { "type": "Point", "coordinates": [ 50.934549689690066, 35.887203137035925 ] } },
{ "type": "Feature", "properties": { "id": 162.0, "osm_id": 3320496908.0, "name": "چهارصد دستگاه", "type": "suburb", "z_order": 3.0, "population": null }, "geometry": { "type": "Point", "coordinates": [ 50.982668435609554, 35.815512132459617 ] } },
{ "type": "Feature", "properties": { "id": 163.0, "osm_id": 3311932296.0, "name": "تجریش", "type": "suburb", "z_order": 3.0, "population": null }, "geometry": { "type": "Point", "coordinates": [ 51.433912551545319, 35.805156458726799 ] } },
{ "type": "Feature", "properties": { "id": 164.0, "osm_id": 3320498489.0, "name": "اسلام آباد", "type": "suburb", "z_order": 3.0, "population": null }, "geometry": { "type": "Point", "coordinates": [ 51.003975987847895, 35.822645970250584 ] } },
{ "type": "Feature", "properties": { "id": 165.0, "osm_id": 3320496907.0, "name": "شهرک فهمیده", "type": "suburb", "z_order": 3.0, "population": null }, "geometry": { "type": "Point", "coordinates": [ 50.982046163117928, 35.800033271869097 ] } },
{ "type": "Feature", "properties": { "id": 166.0, "osm_id": 3320498490.0, "name": "مصباح", "type": "suburb", "z_order": 3.0, "population": null }, "geometry": { "type": "Point", "coordinates": [ 50.994899392539367, 35.800381288488865 ] } },
{ "type": "Feature", "properties": { "id": 167.0, "osm_id": 3320500780.0, "name": "کوی مدرس", "type": "suburb", "z_order": 3.0, "population": null }, "geometry": { "type": "Point", "coordinates": [ 50.994277036228738, 35.840164399340352 ] } },
{ "type": "Feature", "properties": { "id": 168.0, "osm_id": 3320498499.0, "name": "قلمستان", "type": "suburb", "z_order": 3.0, "population": null }, "geometry": { "type": "Point", "coordinates": [ 50.991637742557451, 35.795717094648921 ] } },
{ "type": "Feature", "properties": { "id": 169.0, "osm_id": 3320500657.0, "name": "مهرویلا", "type": "suburb", "z_order": 3.0, "population": null }, "geometry": { "type": "Point", "coordinates": [ 50.959735799983889, 35.813810857572491 ] } },
{ "type": "Feature", "properties": { "id": 170.0, "osm_id": 3320501035.0, "name": "کوی کارمندان شمالی", "type": "suburb", "z_order": 3.0, "population": null }, "geometry": { "type": "Point", "coordinates": [ 50.972025430235931, 35.832692938489544 ] } },
{ "type": "Feature", "properties": { "id": 171.0, "osm_id": 3320506919.0, "name": "دهقان ویلا", "type": "suburb", "z_order": 3.0, "population": null }, "geometry": { "type": "Point", "coordinates": [ 50.959000623256543, 35.828239381876358 ] } },
{ "type": "Feature", "properties": { "id": 172.0, "osm_id": 3320498491.0, "name": "اصفهانی ها", "type": "suburb", "z_order": 3.0, "population": null }, "geometry": { "type": "Point", "coordinates": [ 50.992560422458808, 35.808490863628265 ] } },
{ "type": "Feature", "properties": { "id": 173.0, "osm_id": 3320503472.0, "name": "عظیمیه", "type": "suburb", "z_order": 3.0, "population": null }, "geometry": { "type": "Point", "coordinates": [ 51.018997364163226, 35.837454697682404 ] } },
{ "type": "Feature", "properties": { "id": 174.0, "osm_id": 3320501034.0, "name": "کوی کارمندان جنوبی", "type": "suburb", "z_order": 3.0, "population": null }, "geometry": { "type": "Point", "coordinates": [ 50.968205964597843, 35.824951161261367 ] } },
{ "type": "Feature", "properties": { "id": 175.0, "osm_id": 3320503296.0, "name": "حسن آباد", "type": "suburb", "z_order": 3.0, "population": null }, "geometry": { "type": "Point", "coordinates": [ 51.0004568458005, 35.848035090239307 ] } },
{ "type": "Feature", "properties": { "id": 176.0, "osm_id": 3320512779.0, "name": "گلشهر ویلا", "type": "suburb", "z_order": 3.0, "population": null }, "geometry": { "type": "Point", "coordinates": [ 50.95741275551935, 35.816912832298954 ] } },
{ "type": "Feature", "properties": { "id": 177.0, "osm_id": 3320512217.0, "name": "حصارک بالا", "type": "suburb", "z_order": 3.0, "population": null }, "geometry": { "type": "Point", "coordinates": [ 50.933702027822129, 35.834241243643731 ] } },
{ "type": "Feature", "properties": { "id": 178.0, "osm_id": 3320512284.0, "name": "گلشهر", "type": "suburb", "z_order": 3.0, "population": null }, "geometry": { "type": "Point", "coordinates": [ 50.927629590430001, 35.820888620431248 ] } },
{ "type": "Feature", "properties": { "id": 179.0, "osm_id": 3320509316.0, "name": "کرج نو", "type": "suburb", "z_order": 3.0, "population": null }, "geometry": { "type": "Point", "coordinates": [ 50.952155625848945, 35.830405265656395 ] } },
{ "type": "Feature", "properties": { "id": 180.0, "osm_id": 3320513539.0, "name": "محمد شهر", "type": "suburb", "z_order": 3.0, "population": null }, "geometry": { "type": "Point", "coordinates": [ 50.918740665933541, 35.759870963718043 ] } },
{ "type": "Feature", "properties": { "id": 181.0, "osm_id": 3320513540.0, "name": "کوی بهار", "type": "suburb", "z_order": 3.0, "population": null }, "geometry": { "type": "Point", "coordinates": [ 50.916208660622885, 35.771257862998283 ] } },
{ "type": "Feature", "properties": { "id": 182.0, "osm_id": 3320522244.0, "name": "مهرشهر", "type": "suburb", "z_order": 3.0, "population": null }, "geometry": { "type": "Point", "coordinates": [ 50.901081085594342, 35.799830932726472 ] } },
{ "type": "Feature", "properties": { "id": 183.0, "osm_id": 3320525461.0, "name": "مشکین دشت", "type": "suburb", "z_order": 3.0, "population": null }, "geometry": { "type": "Point", "coordinates": [ 50.947300827530825, 35.746584222264488 ] } },
{ "type": "Feature", "properties": { "id": 184.0, "osm_id": 3320516862.0, "name": "دولت آباد", "type": "suburb", "z_order": 3.0, "population": null }, "geometry": { "type": "Point", "coordinates": [ 50.974578893218705, 35.810892278887479 ] } },
{ "type": "Feature", "properties": { "id": 185.0, "osm_id": 3320516861.0, "name": "فاز چهار مهر شهر", "type": "suburb", "z_order": 3.0, "population": null }, "geometry": { "type": "Point", "coordinates": [ 50.941212296884629, 35.812641079165587 ] } },
{ "type": "Feature", "properties": { "id": 186.0, "osm_id": 3320527189.0, "name": "شهرک المهدی", "type": "suburb", "z_order": 3.0, "population": null }, "geometry": { "type": "Point", "coordinates": [ 51.010043060821971, 35.679760085946867 ] } },
{ "type": "Feature", "properties": { "id": 187.0, "osm_id": 3320525474.0, "name": "فاز 5 اندیشه", "type": "suburb", "z_order": 3.0, "population": null }, "geometry": { "type": "Point", "coordinates": [ 51.029526627110748, 35.718610458613192 ] } },
{ "type": "Feature", "properties": { "id": 188.0, "osm_id": 3320525475.0, "name": "فاز 6 اندیشه", "type": "suburb", "z_order": 3.0, "population": null }, "geometry": { "type": "Point", "coordinates": [ 51.01834717993404, 35.721423928232412 ] } },
{ "type": "Feature", "properties": { "id": 189.0, "osm_id": 3320527550.0, "name": "شهرک وائین", "type": "suburb", "z_order": 3.0, "population": null }, "geometry": { "type": "Point", "coordinates": [ 51.040748989631709, 35.675777257015909 ] } },
{ "type": "Feature", "properties": { "id": 190.0, "osm_id": 3321573391.0, "name": "پیشاهنگی", "type": "suburb", "z_order": 3.0, "population": null }, "geometry": { "type": "Point", "coordinates": [ 50.900073580832895, 35.863300966670181 ] } },
{ "type": "Feature", "properties": { "id": 191.0, "osm_id": 3321579573.0, "name": "خرم دشت", "type": "town", "z_order": 6.0, "population": null }, "geometry": { "type": "Point", "coordinates": [ 50.892161064237079, 35.847855298416221 ] } },
{ "type": "Feature", "properties": { "id": 192.0, "osm_id": 3321473225.0, "name": "حیدر آباد", "type": "suburb", "z_order": 3.0, "population": null }, "geometry": { "type": "Point", "coordinates": [ 50.95416292402092, 35.840124752938323 ] } },
{ "type": "Feature", "properties": { "id": 193.0, "osm_id": 3321473226.0, "name": "جواد آباد", "type": "suburb", "z_order": 3.0, "population": null }, "geometry": { "type": "Point", "coordinates": [ 50.945991490436086, 35.849642655448946 ] } },
{ "type": "Feature", "properties": { "id": 194.0, "osm_id": 3321573390.0, "name": "گلدشت", "type": "suburb", "z_order": 3.0, "population": null }, "geometry": { "type": "Point", "coordinates": [ 50.904043250175874, 35.871073756940092 ] } },
{ "type": "Feature", "properties": { "id": 195.0, "osm_id": 3321554761.0, "name": "شهرک گلها", "type": "suburb", "z_order": 3.0, "population": null }, "geometry": { "type": "Point", "coordinates": [ 50.937093429665161, 35.864799650957622 ] } },
{ "type": "Feature", "properties": { "id": 196.0, "osm_id": 3321609561.0, "name": "کوی مهر", "type": "suburb", "z_order": 3.0, "population": null }, "geometry": { "type": "Point", "coordinates": [ 50.876625793438194, 35.789345171856411 ] } },
{ "type": "Feature", "properties": { "id": 197.0, "osm_id": 3321609562.0, "name": "آق تپه", "type": "suburb", "z_order": 3.0, "population": null }, "geometry": { "type": "Point", "coordinates": [ 50.883063095075471, 35.796429053504482 ] } },
{ "type": "Feature", "properties": { "id": 198.0, "osm_id": 3321661920.0, "name": "اخگر آباد", "type": "town", "z_order": 6.0, "population": null }, "geometry": { "type": "Point", "coordinates": [ 50.891855292409332, 35.823210826705463 ] } },
{ "type": "Feature", "properties": { "id": 199.0, "osm_id": 3321661922.0, "name": "کوی فرهنگ", "type": "suburb", "z_order": 3.0, "population": null }, "geometry": { "type": "Point", "coordinates": [ 50.899622969718273, 35.821070843006225 ] } },
{ "type": "Feature", "properties": { "id": 200.0, "osm_id": 3321661921.0, "name": "شعبان آباد", "type": "town", "z_order": 6.0, "population": null }, "geometry": { "type": "Point", "coordinates": [ 50.892134242146938, 35.816007670575232 ] } },
{ "type": "Feature", "properties": { "id": 201.0, "osm_id": 3321661924.0, "name": "رجب آباد", "type": "suburb", "z_order": 3.0, "population": null }, "geometry": { "type": "Point", "coordinates": [ 50.898442797751443, 35.813327976130665 ] } },
{ "type": "Feature", "properties": { "id": 202.0, "osm_id": 3321661925.0, "name": "مهردشت", "type": "suburb", "z_order": 3.0, "population": null }, "geometry": { "type": "Point", "coordinates": [ 50.906446593272818, 35.819000345284309 ] } },
{ "type": "Feature", "properties": { "id": 203.0, "osm_id": 3321661923.0, "name": "احد آباد", "type": "suburb", "z_order": 3.0, "population": null }, "geometry": { "type": "Point", "coordinates": [ 50.902734332176287, 35.815990236216635 ] } },
{ "type": "Feature", "properties": { "id": 204.0, "osm_id": 3321661926.0, "name": "حسین آباد", "type": "suburb", "z_order": 3.0, "population": null }, "geometry": { "type": "Point", "coordinates": [ 50.906725459191392, 35.821906099657468 ] } },
{ "type": "Feature", "properties": { "id": 205.0, "osm_id": 3321668263.0, "name": "گلزار شرقی", "type": "suburb", "z_order": 3.0, "population": null }, "geometry": { "type": "Point", "coordinates": [ 50.93200259695368, 35.821958151276192 ] } },
{ "type": "Feature", "properties": { "id": 206.0, "osm_id": 3321663279.0, "name": "اکبر آباد", "type": "suburb", "z_order": 3.0, "population": null }, "geometry": { "type": "Point", "coordinates": [ 50.89829259404658, 35.828325883117088 ] } },
{ "type": "Feature", "properties": { "id": 207.0, "osm_id": 3322709883.0, "name": "استادان", "type": "suburb", "z_order": 3.0, "population": null }, "geometry": { "type": "Point", "coordinates": [ 50.936814479927534, 35.829575289604151 ] } },
{ "type": "Feature", "properties": { "id": 208.0, "osm_id": 3321668262.0, "name": "گلزار غربی", "type": "suburb", "z_order": 3.0, "population": null }, "geometry": { "type": "Point", "coordinates": [ 50.923119120694281, 35.823123990188577 ] } },
{ "type": "Feature", "properties": { "id": 209.0, "osm_id": 3322734635.0, "name": "وهرجرد", "type": "suburb", "z_order": 3.0, "population": null }, "geometry": { "type": "Point", "coordinates": [ 50.967273645507845, 35.860692434583569 ] } },
{ "type": "Feature", "properties": { "id": 210.0, "osm_id": 3322734634.0, "name": "شهرک جهازیها", "type": "suburb", "z_order": 3.0, "population": null }, "geometry": { "type": "Point", "coordinates": [ 50.983431272617366, 35.86037073713976 ] } },
{ "type": "Feature", "properties": { "id": 211.0, "osm_id": 3326784829.0, "name": "شهرک آسمان", "type": "suburb", "z_order": 3.0, "population": null }, "geometry": { "type": "Point", "coordinates": [ 50.97497275884885, 35.871959724105523 ] } },
{ "type": "Feature", "properties": { "id": 212.0, "osm_id": 3328230919.0, "name": "نوروزآباد", "type": "suburb", "z_order": 3.0, "population": null }, "geometry": { "type": "Point", "coordinates": [ 50.963753078536911, 35.794540778357543 ] } },
{ "type": "Feature", "properties": { "id": 213.0, "osm_id": 3328230930.0, "name": "شهرک نهال و بذر", "type": "suburb", "z_order": 3.0, "population": null }, "geometry": { "type": "Point", "coordinates": [ 50.945776997533898, 35.791275021243081 ] } },
{ "type": "Feature", "properties": { "id": 214.0, "osm_id": 3376474058.0, "name": "دروازه شمیران", "type": "locality", "z_order": 1.0, "population": null }, "geometry": { "type": "Point", "coordinates": [ 51.437338738286535, 35.699065452974168 ] } },
{ "type": "Feature", "properties": { "id": 215.0, "osm_id": 3439002293.0, "name": "سه راه آزمایش", "type": "suburb", "z_order": 3.0, "population": null }, "geometry": { "type": "Point", "coordinates": [ 51.585888023107515, 35.723536670746341 ] } },
{ "type": "Feature", "properties": { "id": 216.0, "osm_id": 3439043280.0, "name": "سه راه افسریه", "type": "locality", "z_order": 1.0, "population": null }, "geometry": { "type": "Point", "coordinates": [ 51.478851873953033, 35.636917328979962 ] } },
{ "type": "Feature", "properties": { "id": 217.0, "osm_id": 3465753598.0, "name": "شهرک نیروی هوایی", "type": "town", "z_order": 6.0, "population": null }, "geometry": { "type": "Point", "coordinates": [ 51.32364299942261, 35.776655473365906 ] } },
{ "type": "Feature", "properties": { "id": 218.0, "osm_id": 3465753599.0, "name": "شهرک دانشگاه", "type": "town", "z_order": 6.0, "population": null }, "geometry": { "type": "Point", "coordinates": [ 51.317720681916342, 35.776524967133497 ] } },
{ "type": "Feature", "properties": { "id": 219.0, "osm_id": 3465849099.0, "name": "شهرک المهدی", "type": "town", "z_order": 6.0, "population": null }, "geometry": { "type": "Point", "coordinates": [ 51.325072868284991, 35.772682283623595 ] } },
{ "type": "Feature", "properties": { "id": 220.0, "osm_id": 3473574777.0, "name": "سنگلج", "type": "suburb", "z_order": 3.0, "population": null }, "geometry": { "type": "Point", "coordinates": [ 51.412600640717329, 35.675771892597879 ] } },
{ "type": "Feature", "properties": { "id": 221.0, "osm_id": 3473574778.0, "name": "بازار", "type": "suburb", "z_order": 3.0, "population": null }, "geometry": { "type": "Point", "coordinates": [ 51.422542583709486, 35.674325092291099 ] } },
{ "type": "Feature", "properties": { "id": 222.0, "osm_id": 3521484260.0, "name": "امیریه", "type": "town", "z_order": 6.0, "population": null }, "geometry": { "type": "Point", "coordinates": [ 51.03375915293725, 35.626269629740563 ] } },
{ "type": "Feature", "properties": { "id": 223.0, "osm_id": 3543197007.0, "name": "سه راه فرمانیه", "type": "locality", "z_order": 1.0, "population": null }, "geometry": { "type": "Point", "coordinates": [ 51.480142016489509, 35.799800422598935 ] } },
{ "type": "Feature", "properties": { "id": 224.0, "osm_id": 3630479670.0, "name": "حکیمیه", "type": "suburb", "z_order": 3.0, "population": null }, "geometry": { "type": "Point", "coordinates": [ 51.595299223990736, 35.735967871342972 ] } },
{ "type": "Feature", "properties": { "id": 225.0, "osm_id": 3636537652.0, "name": "شهرک سازمان آب", "type": "suburb", "z_order": 3.0, "population": null }, "geometry": { "type": "Point", "coordinates": [ 51.580130829093775, 35.749241620846618 ] } },
{ "type": "Feature", "properties": { "id": 226.0, "osm_id": 3637518050.0, "name": "گلشن", "type": "suburb", "z_order": 3.0, "population": null }, "geometry": { "type": "Point", "coordinates": [ 51.564132039049383, 35.742307439989212 ] } },
{ "type": "Feature", "properties": { "id": 227.0, "osm_id": 3666941384.0, "name": "میدان آقا نور", "type": "locality", "z_order": 1.0, "population": null }, "geometry": { "type": "Point", "coordinates": [ 51.491188191405733, 35.626240041622367 ] } },
{ "type": "Feature", "properties": { "id": 228.0, "osm_id": 3673816622.0, "name": "سپه شهر", "type": "suburb", "z_order": 3.0, "population": null }, "geometry": { "type": "Point", "coordinates": [ 51.556932151861389, 35.755508769849456 ] } }
]
}
